[{
	"date": "103/08/30~103/08/30             \n    ",
	"time": "13：00 至 17：00(使用費請自行下載參閱) \n    ",
	"place": "松山區/民權公園\n    ",
	"name": "社區少棒推廣\n    ",
	"latitude": 25.0617468,
	"longitude": 121.5586585
}, {
	"date": "103/08/31~103/08/31             \n    ",
	"time": "13：00 至 17：00(使用費請自行下載參閱) \n    ",
	"place": "松山區/民權公園\n    ",
	"name": "壘球友誼賽(壘球友誼賽)\n    ",
	"latitude": 25.0617468,
	"longitude": 121.5586585
}, {
	"date": "103/08/30~103/08/30             \n    ",
	"time": "08：00 至 12：00(使用費請自行下載參閱) \n    ",
	"place": "松山區/民權公園\n    ",
	"name": "壘球活動\n    ",
	"latitude": 25.0617468,
	"longitude": 121.5586585
}, {
	"date": "103/08/30~103/08/30             \n    ",
	"time": "13：00 至 17：00(使用費請自行下載參閱) \n    ",
	"place": "松山區/民生公園\n    ",
	"name": "巧戲人間 風華絕代(布袋戲)\n    ",
	"latitude": 25.057423,
	"longitude": 121.557828
}, {
	"date": "103/08/30~103/08/30             \n    ",
	"time": "13：00 至 21：00(使用費請自行下載參閱) \n    ",
	"place": "內湖區/碧湖公園\n    ",
	"name": "巧戲人間 風華絕代(肩擔戲臺 布袋戲表演)\n    ",
	"latitude": 25.0822506,
	"longitude": 121.5835536
}, {
	"date": "103/08/30~103/08/30             \n    ",
	"time": "08：00 至 12：00(使用費請自行下載參閱) \n    ",
	"place": "文山區/景美運動公園\n    ",
	"name": "治安社區暨健康城市秋季聯歡會\n    ",
	"latitude": 25.0025388,
	"longitude": 121.5445017
}, {
	"date": "103/08/30~103/08/30             \n    ",
	"time": "08：00 至 12：00(使用費請自行下載參閱) \n    ",
	"place": "南港區/中研公園\n    ",
	"name": "中秋環保宣導活動\n    ",
	"latitude": 25.046895,
	"longitude": 121.613051
}, {
	"date": "103/08/27~103/08/27             \n    ",
	"time": "08：00 至 12：00(使用費請自行下載參閱) \n    ",
	"place": "信義區/中強公園\n    ",
	"name": "暑期幼兒健樂營\n    ",
	"latitude": 25.0304184,
	"longitude": 121.5701141
}, {
	"date": "103/08/31~103/08/31             \n    ",
	"time": "13：00 至 17：00(使用費請自行下載參閱) \n    ",
	"place": "士林二區/士林官邸露天音樂台\n    ",
	"name": "巧戲人間 風華絕代(布袋戲)\n    ",
	"latitude": 25.107282,
	"longitude": 121.545147
}, {
	"date": "103/08/24~103/08/24             \n    ",
	"time": "13：00 至 17：00(使用費請自行下載參閱) \n    ",
	"place": "松山區/民權公園\n    ",
	"name": "社區少棒推廣\n    ",
	"latitude": 25.0617468,
	"longitude": 121.5586585
}, {
	"date": "103/08/24~103/08/24             \n    ",
	"time": "08：00 至 12：00(使用費請自行下載參閱) \n    ",
	"place": "松山區/民權公園\n    ",
	"name": "壘球推廣\n    ",
	"latitude": 25.0617468,
	"longitude": 121.5586585
}, {
	"date": "103/08/30~103/08/30             \n    ",
	"time": "08：00 至 21：00(使用費請自行下載參閱) \n    ",
	"place": "士林二區/士林3號廣場\n    ",
	"name": "士林區德行里中秋園遊會(中秋園遊會)\n    ",
	"latitude": 25.0809671,
	"longitude": 121.5078928
}, {
	"date": "103/08/23~103/08/23             \n    ",
	"time": "13：00 至 17：00(使用費請自行下載參閱) \n    ",
	"place": "松山區/民生公園\n    ",
	"name": "巧戲人間 風華絕代(布袋戲)\n    ",
	"latitude": 25.057423,
	"longitude": 121.557828
}, {
	"date": "103/08/23~103/08/23             \n    ",
	"time": "13：00 至 21：00(使用費請自行下載參閱) \n    ",
	"place": "內湖區/碧湖公園\n    ",
	"name": "巧戲人間  風華絕代(肩擔戲臺  布袋戲表演)\n    ",
	"latitude": 25.0822506,
	"longitude": 121.5835536
}, {
	"date": "103/08/23~103/08/23             \n    ",
	"time": "08：00 至 12：00(使用費請自行下載參閱) \n    ",
	"place": "松山區/民權公園\n    ",
	"name": "軟式棒球聯誼\n    ",
	"latitude": 25.0617468,
	"longitude": 121.5586585
}, {
	"date": "103/08/20~103/08/22             \n    ",
	"time": "08：00 至 17：00(使用費請自行下載參閱) \n    ",
	"place": "松山區/民權公園\n    ",
	"name": "社區少棒推廣\n    ",
	"latitude": 25.0617468,
	"longitude": 121.5586585
}, {
	"date": "103/08/23~103/08/23             \n    ",
	"time": "13：00 至 17：00(使用費請自行下載參閱) \n    ",
	"place": "松山區/民權公園\n    ",
	"name": "社區少棒推廣\n    ",
	"latitude": 25.0617468,
	"longitude": 121.5586585
}, {
	"date": "103/08/24~103/08/24             \n    ",
	"time": "13：00 至 17：00(使用費請自行下載參閱) \n    ",
	"place": "士林二區/士林官邸露天音樂台\n    ",
	"name": "巧戲人間 風華絕代(布袋戲)\n    ",
	"latitude": 25.107282,
	"longitude": 121.545147
}, {
	"date": "103/08/20~103/08/20             \n    ",
	"time": "08：00 至 12：00(使用費請自行下載參閱) \n    ",
	"place": "信義區/中強公園\n    ",
	"name": "暑期幼兒健樂營\n    ",
	"latitude": 25.0304184,
	"longitude": 121.5701141
}, {
	"date": "103/08/18~103/08/19             \n    ",
	"time": "08：00 至 17：00(使用費請自行下載參閱) \n    ",
	"place": "松山區/民權公園\n    ",
	"name": "社區少棒推廣\n    ",
	"latitude": 25.0617468,
	"longitude": 121.5586585
}, {
	"date": "103/08/17~103/08/17             \n    ",
	"time": "13：00 至 17：00(使用費請自行下載參閱) \n    ",
	"place": "松山區/民權公園\n    ",
	"name": "社區少棒訓練\n    ",
	"latitude": 25.0617468,
	"longitude": 121.5586585
}, {
	"date": "103/08/16~103/08/16             \n    ",
	"time": "13：00 至 21：00(使用費請自行下載參閱) \n    ",
	"place": "內湖區/碧湖公園\n    ",
	"name": "巧戲人間  風華絕代(肩擔戲臺 布袋戲表演)\n    ",
	"latitude": 25.0822506,
	"longitude": 121.5835536
}, {
	"date": "103/08/16~103/08/16             \n    ",
	"time": "13：00 至 17：00(使用費請自行下載參閱) \n    ",
	"place": "松山區/民生公園\n    ",
	"name": "巧戲人間 風華絕代(布袋戲)\n    ",
	"latitude": 25.057423,
	"longitude": 121.557828
}, {
	"date": "103/08/17~103/08/17             \n    ",
	"time": "13：00 至 17：00(使用費請自行下載參閱) \n    ",
	"place": "士林二區/士林官邸露天音樂台\n    ",
	"name": "巧戲人間 風華絕代(布袋戲)\n    ",
	"latitude": 25.107282,
	"longitude": 121.545147
}, {
	"date": "103/08/16~103/08/16             \n    ",
	"time": "08：00 至 12：00(使用費請自行下載參閱) \n    ",
	"place": "松山區/民權公園\n    ",
	"name": "棒球比賽活動\n    ",
	"latitude": 25.0617468,
	"longitude": 121.5586585
}, {
	"date": "103/08/16~103/08/16             \n    ",
	"time": "13：00 至 17：00(使用費請自行下載參閱) \n    ",
	"place": "松山區/民權公園\n    ",
	"name": "社區少棒推廣\n    ",
	"latitude": 25.0617468,
	"longitude": 121.5586585
}, {
	"date": "103/08/13~103/08/13             \n    ",
	"time": "08：00 至 12：00(使用費請自行下載參閱) \n    ",
	"place": "信義區/中強公園\n    ",
	"name": "暑期幼兒健樂營\n    ",
	"latitude": 25.0304184,
	"longitude": 121.5701141
}, {
	"date": "103/08/11~103/08/12             \n    ",
	"time": "08：00 至 12：00(使用費請自行下載參閱) \n    ",
	"place": "松山區/民權公園\n    ",
	"name": "健康國小球隊練球\n    ",
	"latitude": 25.0617468,
	"longitude": 121.5586585
}, {
	"date": "103/08/10~103/08/10             \n    ",
	"time": "13：00 至 17：00(使用費請自行下載參閱) \n    ",
	"place": "松山區/民權公園\n    ",
	"name": "社區少棒隊活動\n    ",
	"latitude": 25.0617468,
	"longitude": 121.5586585
}, {
	"date": "103/08/09~103/08/09             \n    ",
	"time": "08：00 至 12：00(使用費請自行下載參閱) \n    ",
	"place": "松山區/民權公園\n    ",
	"name": "壘球比賽\n    ",
	"latitude": 25.0617468,
	"longitude": 121.5586585
}, {
	"date": "103/08/09~103/08/09             \n    ",
	"time": "13：00 至 17：00(使用費請自行下載參閱) \n    ",
	"place": "松山區/民權公園\n    ",
	"name": "社區少棒推廣\n    ",
	"latitude": 25.0617468,
	"longitude": 121.5586585
}, {
	"date": "103/08/09~103/08/09             \n    ",
	"time": "13：00 至 17：00(使用費請自行下載參閱) \n    ",
	"place": "士林二區/士林3號廣場\n    ",
	"name": "2014 捷安特PUSHBIKE趣味賽(邀請3-10歲的兒童共同參與PUSHBIKE趣味賽，無需報名費用)\n    "
}, {
	"date": "103/08/09~103/08/09             \n    ",
	"time": "18：00 至 21：00(使用費請自行下載參閱) \n    ",
	"place": "中山區/林森公園\n    ",
	"name": "波麗士加油─經典老歌音樂欣賞會\n    "
}, {
	"date": "103/08/09~103/08/09             \n    ",
	"time": "13：00 至 17：00(使用費請自行下載參閱) \n    ",
	"place": "松山區/民生公園\n    ",
	"name": "2014臺北設計城市展─街角遇見設計記者會\n    "
}, {
	"date": "103/08/10~103/08/10             \n    ",
	"time": "08：00 至 12：00(使用費請自行下載參閱) \n    ",
	"place": "松山區/民權公園\n    ",
	"name": "壘球交流\n    ",
	"latitude": 25.0617468,
	"longitude": 121.5586585
}, {
	"date": "103/08/08~103/08/08             \n    ",
	"time": "08：00 至 21：00(使用費請自行下載參閱) \n    ",
	"place": "中山區/花博公園美術園區\n    ",
	"name": "文化就在巷子裡─社區藝術巡禮\n    "
}, {
	"date": "103/08/09~103/08/09             \n    ",
	"time": "13：00 至 17：00(使用費請自行下載參閱) \n    ",
	"place": "松山區/民生公園\n    ",
	"name": "巧戲人間 風華絕代(布袋戲)((布袋戲))\n    ",
	"latitude": 25.057423,
	"longitude": 121.557828
}, {
	"date": "103/08/10~103/08/10             \n    ",
	"time": "13：00 至 17：00(使用費請自行下載參閱) \n    ",
	"place": "士林二區/士林官邸露天音樂台\n    ",
	"name": "巧戲人間 風華絕代(布袋戲)\n    ",
	"latitude": 25.107282,
	"longitude": 121.545147
}, {
	"date": "103/08/06~103/08/06             \n    ",
	"time": "08：00 至 12：00(使用費請自行下載參閱) \n    ",
	"place": "信義區/中強公園\n    ",
	"name": "暑期幼兒健樂營\n    "
}, {
	"date": "103/08/04~103/08/08             \n    ",
	"time": "08：00 至 12：00(使用費請自行下載參閱) \n    ",
	"place": "松山區/民權公園\n    ",
	"name": "健康國小球隊練球\n    ",
	"latitude": 25.0617468,
	"longitude": 121.5586585
}, {
	"date": "103/08/03~103/08/03             \n    ",
	"time": "13：00 至 17：00(使用費請自行下載參閱) \n    ",
	"place": "松山區/民權公園\n    ",
	"name": "社區少棒推廣\n    ",
	"latitude": 25.0617468,
	"longitude": 121.5586585
}, {
	"date": "103/08/09~103/08/09             \n    ",
	"time": "13：00 至 21：00(使用費請自行下載參閱) \n    ",
	"place": "士林區/蘭興1號綠地\n    ",
	"name": "臺北市獸醫師公會寵物健檢(寵物健檢)\n    ",
	"latitude": 25.1132011,
	"longitude": 121.5264511
}, {
	"date": "103/08/07~103/08/10             \n    ",
	"time": "08：00 至 21：00(使用費請自行下載參閱) \n    ",
	"place": "萬華區/艋舺公園\n    ",
	"name": "2014萬華文化嘉年華-艋舺文化節(藝文展演及政令宣導活動)\n    ",
	"latitude": 25.0366207,
	"longitude": 121.5002332
}, {
	"date": "103/08/02~103/08/02             \n    ",
	"time": "08：00 至 21：00(使用費請自行下載參閱) \n    ",
	"place": "萬華區/青年公園露天音樂台\n    ",
	"name": "客饗88節(客饗88節)\n    "
}, {
	"date": "103/08/03~103/08/03             \n    ",
	"time": "08：00 至 12：00(使用費請自行下載參閱) \n    ",
	"place": "松山區/民權公園\n    ",
	"name": "壘球推廣\n    ",
	"latitude": 25.0617468,
	"longitude": 121.5586585
}, {
	"date": "103/08/03~103/08/03             \n    ",
	"time": "08：00 至 21：00(使用費請自行下載參閱) \n    ",
	"place": "萬華區/青年公園園區\n    ",
	"name": "有愛相隨、憶同相守(宣導失智症)\n    ",
	"latitude": 25.025201,
	"longitude": 121.507179
}, {
	"date": "103/08/02~103/08/02             \n    ",
	"time": "13：00 至 17：00(使用費請自行下載參閱) \n    ",
	"place": "松山區/民生公園\n    ",
	"name": "巧戲人間 風華絕代((布袋戲))\n    ",
	"latitude": 25.057423,
	"longitude": 121.557828
}, {
	"date": "103/08/02~103/08/02             \n    ",
	"time": "18：00 至 21：00(使用費請自行下載參閱) \n    ",
	"place": "大安區/大安森林公園露天音樂台\n    ",
	"name": "仲夏之夜懷念金曲演唱會\n    "
}, {
	"date": "103/08/02~103/08/02             \n    ",
	"time": "08：00 至 12：00(使用費請自行下載參閱) \n    ",
	"place": "松山區/民權公園\n    ",
	"name": "壘球活動\n    ",
	"latitude": 25.0617468,
	"longitude": 121.5586585
}, {
	"date": "103/08/02~103/08/02             \n    ",
	"time": "13：00 至 17：00(使用費請自行下載參閱) \n    ",
	"place": "松山區/民權公園\n    ",
	"name": "社區少棒推廣\n    ",
	"latitude": 25.0617468,
	"longitude": 121.5586585
}, {
	"date": "103/08/03~103/08/03             \n    ",
	"time": "13：00 至 17：00(使用費請自行下載參閱) \n    ",
	"place": "士林二區/士林官邸露天音樂台\n    ",
	"name": "巧戲人間 風華絕代(布袋戲)\n    ",
	"latitude": 25.107282,
	"longitude": 121.545147
}]